[
  {
    "id": "willis-tower",
    "name": "Willis Tower",
    "lat": 41.8789,
    "lon": -87.6359,
    "heightM": 442.1,
    "floors": 108,
    "yearCompleted": 1973,
    "architect": "Bruce Graham (SOM)",
    "style": "International Style",
    "prominence": 10,
    "fact": "The nine bundled tubes let it be the world's tallest building for 25 years — you can still see each tube stop at a different height.",
    "description": "Formerly Sears Tower, Willis Tower defined Chicago's skyline from 1973 to 1998 as the tallest building in the world. SOM's Fazlur Khan invented the bundled-tube structural system here to make the enormous height economical.",
    "wikipediaUrl": "https://en.wikipedia.org/wiki/Willis_Tower"
  },
  {
    "id": "875-north-michigan-avenue",
    "name": "875 North Michigan Avenue",
    "lat": 41.8988,
    "lon": -87.6229,
    "heightM": 343.7,
    "floors": 100,
    "yearCompleted": 1969,
    "architect": "Bruce Graham (SOM)",
    "style": "International Style",
    "prominence": 10,
    "fact": "The Xs on its facade aren't decoration — they are the building's structure, carrying wind loads to the corners.",
    "description": "Known for decades as the John Hancock Center, 875 N Michigan was SOM's first tall trussed-tube. The exposed X-bracing lets it be tall and slender with less steel than a conventional frame.",
    "wikipediaUrl": "https://en.wikipedia.org/wiki/875_North_Michigan_Avenue"
  },
  {
    "id": "trump-international-hotel-and-tower",
    "name": "Trump International Hotel and Tower",
    "lat": 41.8892,
    "lon": -87.6265,
    "heightM": 423.2,
    "floors": 98,
    "yearCompleted": 2009,
    "architect": "Adrian Smith (SOM)",
    "style": "Modernist",
    "prominence": 9,
    "fact": "Its three setbacks line up with the heights of Wrigley, the river, and Marina City — a deliberate rhyme with the skyline.",
    "wikipediaUrl": "https://en.wikipedia.org/wiki/Trump_International_Hotel_and_Tower_(Chicago)"
  },
  {
    "id": "aon-center",
    "name": "Aon Center",
    "lat": 41.8853,
    "lon": -87.6216,
    "heightM": 346.3,
    "floors": 83,
    "yearCompleted": 1973,
    "architect": "Edward Durell Stone",
    "style": "Modernist",
    "prominence": 9,
    "fact": "Its original Carrara marble facade began cracking and falling off; the entire skin was replaced with granite in the early 90s.",
    "wikipediaUrl": "https://en.wikipedia.org/wiki/Aon_Center_(Chicago)"
  },
  {
    "id": "st-regis-chicago",
    "name": "St. Regis Chicago",
    "lat": 41.8871,
    "lon": -87.6191,
    "heightM": 362.5,
    "floors": 101,
    "yearCompleted": 2020,
    "architect": "Jeanne Gang",
    "style": "Contemporary",
    "prominence": 10,
    "fact": "The tallest building in the world designed by a woman-led firm; its stepped 'stems' were tuned by wind-tunnel testing to shed vortices.",
    "wikipediaUrl": "https://en.wikipedia.org/wiki/St._Regis_Chicago"
  },
  {
    "id": "aqua",
    "name": "Aqua",
    "lat": 41.8862,
    "lon": -87.6198,
    "heightM": 261.8,
    "floors": 82,
    "yearCompleted": 2009,
    "architect": "Jeanne Gang",
    "style": "Contemporary",
    "prominence": 9,
    "fact": "The wavy balconies aren't just sculptural — each one is shaped to give specific residents a view past their neighbors.",
    "wikipediaUrl": "https://en.wikipedia.org/wiki/Aqua_(skyscraper)"
  },
  {
    "id": "chase-tower",
    "name": "Chase Tower",
    "lat": 41.8811,
    "lon": -87.6303,
    "heightM": 259.1,
    "floors": 60,
    "yearCompleted": 1969,
    "architect": "C.F. Murphy Associates & Perkins & Will",
    "style": "Modernist",
    "prominence": 7,
    "fact": "Its sweeping A-frame curve was born of a zoning constraint: banks needed massive floor plates below, offices needed slender ones above.",
    "wikipediaUrl": "https://en.wikipedia.org/wiki/Chase_Tower_(Chicago)"
  },
  {
    "id": "prudential-plaza",
    "name": "Two Prudential Plaza",
    "lat": 41.8856,
    "lon": -87.6234,
    "heightM": 303.3,
    "floors": 64,
    "yearCompleted": 1990,
    "architect": "Loebl Schlossman & Hackl",
    "style": "Postmodern",
    "prominence": 8,
    "fact": "The chevron spire is a direct homage to the Chrysler Building — a rare Chicago wink at New York.",
    "wikipediaUrl": "https://en.wikipedia.org/wiki/Two_Prudential_Plaza"
  },
  {
    "id": "311-south-wacker-drive",
    "name": "311 South Wacker Drive",
    "lat": 41.8783,
    "lon": -87.6357,
    "heightM": 293.5,
    "floors": 65,
    "yearCompleted": 1990,
    "architect": "Kohn Pedersen Fox",
    "style": "Postmodern",
    "prominence": 8,
    "fact": "The illuminated crown was designed as a lantern for the skyline — locals just call it 'the tower with the glowing hat.'",
    "wikipediaUrl": "https://en.wikipedia.org/wiki/311_South_Wacker_Drive"
  },
  {
    "id": "150-north-riverside",
    "name": "150 North Riverside",
    "lat": 41.8853,
    "lon": -87.6382,
    "heightM": 227.9,
    "floors": 54,
    "yearCompleted": 2017,
    "architect": "Goettsch Partners",
    "style": "Contemporary",
    "prominence": 7,
    "fact": "It sits on a footprint the size of a house — a slender concrete stem widens above the tracks it straddles.",
    "wikipediaUrl": "https://en.wikipedia.org/wiki/150_North_Riverside"
  },
  {
    "id": "chicago-board-of-trade-building",
    "name": "Chicago Board of Trade Building",
    "lat": 41.8779,
    "lon": -87.6329,
    "heightM": 184.4,
    "floors": 44,
    "yearCompleted": 1930,
    "architect": "Holabird & Root",
    "style": "Art Deco",
    "prominence": 8,
    "fact": "The faceless aluminum figure on top is Ceres, goddess of grain — the sculptor left her featureless because no building would ever look her in the face.",
    "wikipediaUrl": "https://en.wikipedia.org/wiki/Chicago_Board_of_Trade_Building"
  },
  {
    "id": "tribune-tower",
    "name": "Tribune Tower",
    "lat": 41.8905,
    "lon": -87.6234,
    "heightM": 141.1,
    "floors": 36,
    "yearCompleted": 1925,
    "architect": "Howells & Hood",
    "style": "Neo-Gothic",
    "prominence": 8,
    "fact": "Embedded in its walls are stones from the Great Pyramid, the Great Wall, the Alamo, and 150 other world landmarks — Tribune correspondents smuggled them home.",
    "wikipediaUrl": "https://en.wikipedia.org/wiki/Tribune_Tower"
  },
  {
    "id": "wrigley-building",
    "name": "Wrigley Building",
    "lat": 41.8909,
    "lon": -87.6244,
    "heightM": 133.5,
    "floors": 30,
    "yearCompleted": 1924,
    "architect": "Graham, Anderson, Probst & White",
    "style": "French Renaissance Revival",
    "prominence": 8,
    "fact": "Its terracotta gets whiter as it rises — six shades, so it seems to glow against the sky. It's floodlit at night year-round.",
    "wikipediaUrl": "https://en.wikipedia.org/wiki/Wrigley_Building"
  },
  {
    "id": "carbide-and-carbon-building",
    "name": "Carbide & Carbon Building",
    "lat": 41.8869,
    "lon": -87.6248,
    "heightM": 153.0,
    "floors": 40,
    "yearCompleted": 1929,
    "architect": "Burnham Brothers",
    "style": "Art Deco",
    "prominence": 7,
    "fact": "Legend says the black-and-gold facade was inspired by a champagne bottle — the top is the foil, the tower is the neck.",
    "wikipediaUrl": "https://en.wikipedia.org/wiki/Carbide_%26_Carbon_Building"
  },
  {
    "id": "marina-city",
    "name": "Marina City",
    "lat": 41.8886,
    "lon": -87.6314,
    "heightM": 179.2,
    "floors": 61,
    "yearCompleted": 1964,
    "architect": "Bertrand Goldberg",
    "style": "Modernist",
    "prominence": 9,
    "fact": "The corncob towers were a bet against 1960s suburban flight — a self-contained city with parking spiraling up the first 19 floors.",
    "wikipediaUrl": "https://en.wikipedia.org/wiki/Marina_City"
  },
  {
    "id": "chicago-temple-building",
    "name": "Chicago Temple Building",
    "lat": 41.8830,
    "lon": -87.6316,
    "heightM": 173.1,
    "floors": 23,
    "yearCompleted": 1924,
    "architect": "Holabird & Roche",
    "style": "Neo-Gothic",
    "prominence": 6,
    "fact": "The spire houses an actual chapel 400 feet up — the highest sanctuary in the world when it was built.",
    "wikipediaUrl": "https://en.wikipedia.org/wiki/Chicago_Temple_Building"
  },
  {
    "id": "merchandise-mart",
    "name": "Merchandise Mart",
    "lat": 41.8885,
    "lon": -87.6355,
    "heightM": 103.6,
    "floors": 25,
    "yearCompleted": 1930,
    "architect": "Graham, Anderson, Probst & White",
    "style": "Art Deco",
    "prominence": 7,
    "fact": "It was the largest building in the world by floor area — big enough to have its own ZIP code until 2008.",
    "wikipediaUrl": "https://en.wikipedia.org/wiki/Merchandise_Mart"
  },
  {
    "id": "the-rookery",
    "name": "The Rookery",
    "lat": 41.8788,
    "lon": -87.6320,
    "heightM": 55.5,
    "floors": 12,
    "yearCompleted": 1888,
    "architect": "Burnham & Root",
    "style": "Chicago School",
    "prominence": 6,
    "fact": "Frank Lloyd Wright remodeled the light court in 1905 — the gold-leaf staircase inside is the reason to go in.",
    "wikipediaUrl": "https://en.wikipedia.org/wiki/Rookery_Building"
  },
  {
    "id": "auditorium-building",
    "name": "Auditorium Building",
    "lat": 41.8763,
    "lon": -87.6253,
    "heightM": 82.3,
    "floors": 17,
    "yearCompleted": 1889,
    "architect": "Adler & Sullivan",
    "style": "Chicago School",
    "prominence": 6,
    "fact": "The theater inside has some of the finest acoustics ever built — Adler tuned it before microphones existed.",
    "wikipediaUrl": "https://en.wikipedia.org/wiki/Auditorium_Building"
  },
  {
    "id": "monadnock-building",
    "name": "Monadnock Building",
    "lat": 41.8790,
    "lon": -87.6295,
    "heightM": 66.0,
    "floors": 17,
    "yearCompleted": 1891,
    "architect": "Burnham & Root / Holabird & Roche",
    "style": "Chicago School",
    "prominence": 5,
    "fact": "The last tall building built with load-bearing masonry — its walls are 6 feet thick at street level to hold up the ones above.",
    "wikipediaUrl": "https://en.wikipedia.org/wiki/Monadnock_Building"
  },
  {
    "id": "reliance-building",
    "name": "Reliance Building",
    "lat": 41.8829,
    "lon": -87.6280,
    "heightM": 61.6,
    "floors": 15,
    "yearCompleted": 1895,
    "architect": "Burnham & Root",
    "style": "Chicago School",
    "prominence": 5,
    "fact": "Its terra cotta and glass facade is the direct ancestor of every glass skyscraper built since.",
    "wikipediaUrl": "https://en.wikipedia.org/wiki/Reliance_Building"
  },
  {
    "id": "wrigley-clock-tower",
    "name": "Wrigley Building South Tower",
    "lat": 41.8907,
    "lon": -87.6245,
    "heightM": 88.7,
    "floors": 21,
    "yearCompleted": 1921,
    "architect": "Graham, Anderson, Probst & White",
    "style": "French Renaissance Revival",
    "prominence": 6,
    "wikipediaUrl": "https://en.wikipedia.org/wiki/Wrigley_Building"
  },
  {
    "id": "mather-tower",
    "name": "Mather Tower",
    "lat": 41.8886,
    "lon": -87.6255,
    "heightM": 158.5,
    "floors": 42,
    "yearCompleted": 1928,
    "architect": "Herbert Hugh Riddle",
    "style": "Gothic Revival",
    "prominence": 5,
    "fact": "The upper floors taper so aggressively the top three stories share a single office each.",
    "wikipediaUrl": "https://en.wikipedia.org/wiki/Mather_Tower"
  },
  {
    "id": "leo-burnett-building",
    "name": "Leo Burnett Building",
    "lat": 41.8869,
    "lon": -87.6285,
    "heightM": 194.8,
    "floors": 50,
    "yearCompleted": 1989,
    "architect": "Kevin Roche",
    "style": "Postmodern",
    "prominence": 6,
    "wikipediaUrl": "https://en.wikipedia.org/wiki/Leo_Burnett_Building"
  },
  {
    "id": "jewelers-building",
    "name": "Jewelers' Building",
    "lat": 41.8878,
    "lon": -87.6270,
    "heightM": 159.4,
    "floors": 40,
    "yearCompleted": 1927,
    "architect": "Giaver & Dinkelberg",
    "style": "Beaux-Arts",
    "prominence": 6,
    "fact": "The core hid a car elevator so jewelers could drive their inventory straight up to their offices, safe from stickup men.",
    "wikipediaUrl": "https://en.wikipedia.org/wiki/Jewelers%27_Building"
  },
  {
    "id": "one-magnificent-mile",
    "name": "One Magnificent Mile",
    "lat": 41.9037,
    "lon": -87.6247,
    "heightM": 205.4,
    "floors": 57,
    "yearCompleted": 1983,
    "architect": "Bruce Graham (SOM)",
    "style": "Postmodern",
    "prominence": 6,
    "wikipediaUrl": "https://en.wikipedia.org/wiki/One_Magnificent_Mile"
  },
  {
    "id": "water-tower-place",
    "name": "Water Tower Place",
    "lat": 41.8975,
    "lon": -87.6236,
    "heightM": 262.1,
    "floors": 74,
    "yearCompleted": 1976,
    "architect": "Loebl Schlossman Dart & Hackl",
    "style": "Modernist",
    "prominence": 7,
    "wikipediaUrl": "https://en.wikipedia.org/wiki/Water_Tower_Place"
  },
  {
    "id": "olympia-centre",
    "name": "Olympia Centre",
    "lat": 41.8965,
    "lon": -87.6241,
    "heightM": 221.6,
    "floors": 63,
    "yearCompleted": 1986,
    "architect": "Bruce Graham (SOM)",
    "style": "Modernist",
    "prominence": 6,
    "wikipediaUrl": "https://en.wikipedia.org/wiki/Olympia_Centre"
  },
  {
    "id": "park-tower-chicago",
    "name": "Park Tower",
    "lat": 41.8985,
    "lon": -87.6248,
    "heightM": 257.5,
    "floors": 67,
    "yearCompleted": 2000,
    "architect": "Lucien Lagrange",
    "style": "Postmodern",
    "prominence": 7,
    "wikipediaUrl": "https://en.wikipedia.org/wiki/Park_Tower_(Chicago)"
  },
  {
    "id": "franklin-center",
    "name": "AT&T Corporate Center",
    "lat": 41.8813,
    "lon": -87.6349,
    "heightM": 307.9,
    "floors": 60,
    "yearCompleted": 1989,
    "architect": "Adrian Smith (SOM)",
    "style": "Postmodern",
    "prominence": 8,
    "fact": "The pinkish granite crown was originally lit gold at night — a deliberate 1980s response to Aon's cold white marble.",
    "wikipediaUrl": "https://en.wikipedia.org/wiki/AT%26T_Corporate_Center"
  },
  {
    "id": "citigroup-center-chicago",
    "name": "Citigroup Center",
    "lat": 41.8817,
    "lon": -87.6395,
    "heightM": 205.7,
    "floors": 41,
    "yearCompleted": 1987,
    "architect": "Murphy/Jahn",
    "style": "Postmodern",
    "prominence": 6,
    "wikipediaUrl": "https://en.wikipedia.org/wiki/Citigroup_Center_(Chicago)"
  },
  {
    "id": "one-eleven-south-wacker",
    "name": "111 South Wacker",
    "lat": 41.8807,
    "lon": -87.6362,
    "heightM": 205.4,
    "floors": 51,
    "yearCompleted": 2005,
    "architect": "Goettsch Partners",
    "style": "Contemporary",
    "prominence": 6,
    "wikipediaUrl": "https://en.wikipedia.org/wiki/111_South_Wacker_Drive"
  },
  {
    "id": "one-eleven-west-illinois",
    "name": "River Point",
    "lat": 41.8874,
    "lon": -87.6379,
    "heightM": 226.9,
    "floors": 52,
    "yearCompleted": 2017,
    "architect": "Pickard Chilton",
    "style": "Contemporary",
    "prominence": 7,
    "wikipediaUrl": "https://en.wikipedia.org/wiki/River_Point_(Chicago)"
  },
  {
    "id": "111-w-wacker",
    "name": "111 West Wacker",
    "lat": 41.8871,
    "lon": -87.6317,
    "heightM": 184.4,
    "floors": 60,
    "yearCompleted": 2014,
    "architect": "Handel Architects & Solomon Cordwell Buenz",
    "style": "Contemporary",
    "prominence": 6,
    "wikipediaUrl": "https://en.wikipedia.org/wiki/111_West_Wacker"
  },
  {
    "id": "chicago-title-and-trust-center",
    "name": "161 North Clark",
    "lat": 41.8848,
    "lon": -87.6314,
    "heightM": 190.5,
    "floors": 50,
    "yearCompleted": 1992,
    "architect": "Kohn Pedersen Fox",
    "style": "Postmodern",
    "prominence": 6,
    "wikipediaUrl": "https://en.wikipedia.org/wiki/161_North_Clark"
  },
  {
    "id": "three-first-national-plaza",
    "name": "Three First National Plaza",
    "lat": 41.8817,
    "lon": -87.6298,
    "heightM": 235.6,
    "floors": 57,
    "yearCompleted": 1981,
    "architect": "Skidmore Owings & Merrill",
    "style": "Modernist",
    "prominence": 6,
    "wikipediaUrl": "https://en.wikipedia.org/wiki/Three_First_National_Plaza"
  },
  {
    "id": "kluczynski-federal-building",
    "name": "Kluczynski Federal Building",
    "lat": 41.8781,
    "lon": -87.6295,
    "heightM": 165.5,
    "floors": 45,
    "yearCompleted": 1974,
    "architect": "Mies van der Rohe",
    "style": "Modernist / International",
    "prominence": 7,
    "fact": "Mies' last Chicago work — the black steel and glass grid that became the template for every corporate tower after.",
    "wikipediaUrl": "https://en.wikipedia.org/wiki/Kluczynski_Federal_Building"
  },
  {
    "id": "ibm-plaza",
    "name": "IBM Plaza (330 North Wabash)",
    "lat": 41.8887,
    "lon": -87.6266,
    "heightM": 212.8,
    "floors": 52,
    "yearCompleted": 1972,
    "architect": "Mies van der Rohe",
    "style": "International Style",
    "prominence": 8,
    "fact": "Mies died before it opened; the black glass tower on the river was his final skyscraper.",
    "wikipediaUrl": "https://en.wikipedia.org/wiki/AMA_Plaza"
  },
  {
    "id": "harold-washington-library",
    "name": "Harold Washington Library",
    "lat": 41.8760,
    "lon": -87.6284,
    "heightM": 45.7,
    "floors": 10,
    "yearCompleted": 1991,
    "architect": "Hammond Beeby & Babka",
    "style": "Postmodern",
    "prominence": 4,
    "fact": "The seven-story owls perched on the roof are almost as big as the library's reading rooms below.",
    "wikipediaUrl": "https://en.wikipedia.org/wiki/Harold_Washington_Library"
  },
  {
    "id": "james-r-thompson-center",
    "name": "James R. Thompson Center",
    "lat": 41.8843,
    "lon": -87.6317,
    "heightM": 74.7,
    "floors": 17,
    "yearCompleted": 1985,
    "architect": "Helmut Jahn",
    "style": "Postmodern",
    "prominence": 6,
    "fact": "The pink-and-blue glass drum was so hot and loud that state workers famously hated it — Google is now restoring it as its Midwest HQ.",
    "wikipediaUrl": "https://en.wikipedia.org/wiki/James_R._Thompson_Center"
  },
  {
    "id": "mies-federal-plaza-post-office",
    "name": "Loop Postal Station (Federal Plaza)",
    "lat": 41.8777,
    "lon": -87.6293,
    "heightM": 12.5,
    "floors": 1,
    "yearCompleted": 1974,
    "architect": "Mies van der Rohe",
    "style": "Modernist",
    "prominence": 3,
    "wikipediaUrl": "https://en.wikipedia.org/wiki/Federal_Plaza_(Chicago)"
  },
  {
    "id": "sullivan-center",
    "name": "Sullivan Center (Carson Pirie Scott)",
    "lat": 41.8817,
    "lon": -87.6279,
    "heightM": 55.5,
    "floors": 12,
    "yearCompleted": 1899,
    "architect": "Louis Sullivan",
    "style": "Chicago School",
    "prominence": 6,
    "fact": "Look at the ornament framing the corner entrance — Sullivan's iron filigree at eye level is why he's remembered.",
    "wikipediaUrl": "https://en.wikipedia.org/wiki/Sullivan_Center"
  },
  {
    "id": "old-colony-building",
    "name": "Old Colony Building",
    "lat": 41.8769,
    "lon": -87.6285,
    "heightM": 66.0,
    "floors": 17,
    "yearCompleted": 1894,
    "architect": "Holabird & Roche",
    "style": "Chicago School",
    "prominence": 4,
    "wikipediaUrl": "https://en.wikipedia.org/wiki/Old_Colony_Building"
  },
  {
    "id": "fisher-building",
    "name": "Fisher Building",
    "lat": 41.8770,
    "lon": -87.6288,
    "heightM": 84.4,
    "floors": 20,
    "yearCompleted": 1896,
    "architect": "D.H. Burnham & Co.",
    "style": "Neo-Gothic",
    "prominence": 5,
    "fact": "Look for the actual fish carved into the terra cotta — a rebus on the developer's name, Lucius Fisher.",
    "wikipediaUrl": "https://en.wikipedia.org/wiki/Fisher_Building_(Chicago)"
  },
  {
    "id": "manhattan-building",
    "name": "Manhattan Building",
    "lat": 41.8763,
    "lon": -87.6286,
    "heightM": 66.8,
    "floors": 16,
    "yearCompleted": 1891,
    "architect": "William Le Baron Jenney",
    "style": "Chicago School",
    "prominence": 5,
    "fact": "The world's first 16-story building with a full skeleton steel frame — the moment vertical cities became possible.",
    "wikipediaUrl": "https://en.wikipedia.org/wiki/Manhattan_Building_(Chicago)"
  },
  {
    "id": "chicago-place",
    "name": "Chicago Place",
    "lat": 41.8945,
    "lon": -87.6250,
    "heightM": 179.5,
    "floors": 44,
    "yearCompleted": 1990,
    "architect": "Skidmore Owings & Merrill",
    "style": "Postmodern",
    "prominence": 5,
    "wikipediaUrl": "https://en.wikipedia.org/wiki/Chicago_Place"
  },
  {
    "id": "155-north-wacker",
    "name": "155 North Wacker",
    "lat": 41.8858,
    "lon": -87.6360,
    "heightM": 205.4,
    "floors": 46,
    "yearCompleted": 2009,
    "architect": "Goettsch Partners",
    "style": "Contemporary",
    "prominence": 6,
    "wikipediaUrl": "https://en.wikipedia.org/wiki/155_North_Wacker"
  },
  {
    "id": "hyatt-center",
    "name": "Hyatt Center (71 South Wacker)",
    "lat": 41.8809,
    "lon": -87.6367,
    "heightM": 205.1,
    "floors": 48,
    "yearCompleted": 2005,
    "architect": "Henry N. Cobb (Pei Cobb Freed)",
    "style": "Contemporary",
    "prominence": 6,
    "wikipediaUrl": "https://en.wikipedia.org/wiki/Hyatt_Center"
  },
  {
    "id": "one-eleven-north-canal",
    "name": "One Congress Plaza",
    "lat": 41.8759,
    "lon": -87.6247,
    "heightM": 96.0,
    "floors": 25,
    "yearCompleted": 1999,
    "architect": "Skidmore Owings & Merrill",
    "style": "Contemporary",
    "prominence": 4
  },
  {
    "id": "navy-pier",
    "name": "Navy Pier Centennial Wheel",
    "lat": 41.8917,
    "lon": -87.6086,
    "heightM": 60.3,
    "yearCompleted": 2016,
    "prominence": 5,
    "fact": "A landmark by shape, not height — visible from most of the lakefront and often mistaken for a bigger building at distance.",
    "wikipediaUrl": "https://en.wikipedia.org/wiki/Centennial_Wheel"
  }
]
